{"businesses": [{"id": "JSuOVbrBSeApdubtSsZq7w", "alias": "la-fontaine-d-or-bordeaux", "name": "La Fontaine d'Or", "image_url": "https://s3-media4.fl.yelpcdn.com/bphoto/9dWrijWGnMKW2qOiAM9gXw/o.jpg", "is_closed": false, "url": "https://www.yelp.com/biz/la-fontaine-d-or-bordeaux?adjust_creative=GS_rn-_RHO9hSYA13t7mWQ&utm_campaign=yelp_api_v3&utm_medium=api_v3_business_search&utm_source=GS_rn-_RHO9hSYA13t7mWQ", "review_count": 11, "categories": [{"alias": "chinese", "title": "Chinese"}], "rating": 4.5, "coordinates": {"latitude": 44.83864, "longitude": -0.57194}, "transactions": [], "price": "\u20ac\u20ac", "location": {"address1": "58 rue du Pas Saint Georges", "address2": "", "address3": "", "city": "Bordeaux", "zip_code": "33000", "country": "FR", "state": "33", "display_address": ["58 rue du Pas Saint Georges", "33000 Bordeaux", "France"]}, "phone": "+33556012932", "display_phone": "+33 5 56 01 29 32", "distance": 224.34952704478323}, {"id": "6cXgRI3nzsFiOFCjnV3hSQ", "alias": "wa-bordeaux", "name": "Wa", "image_url": "https://s3-media3.fl.yelpcdn.com/bphoto/OBDgLWHrLjVxje6i_KM9kQ/o.jpg", "is_closed": false, "url": "https://www.yelp.com/biz/wa-bordeaux?adjust_creative=GS_rn-_RHO9hSYA13t7mWQ&utm_campaign=yelp_api_v3&utm_medium=api_v3_business_search&utm_source=GS_rn-_RHO9hSYA13t7mWQ", "review_count": 27, "categories": [{"alias": "panasian", "title": "Pan Asian"}], "rating": 4.5, "coordinates": {"latitude": 44.841513, "longitude": -0.573708}, "transactions": [], "price": "\u20ac\u20ac", "location": {"address1": "11 rue des Piliers de Tutelle", "address2": "", "address3": "", "city": "Bordeaux", "zip_code": "33000", "country": "FR", "state": "33", "display_address": ["11 rue des Piliers de Tutelle", "33000 Bordeaux", "France"]}, "phone": "+33556516493", "display_phone": "+33 5 56 51 64 93", "distance": 210.665071163573}, {"id": "h3dMjUYwni3gou6UtjEW7w", "alias": "wok-way-bordeaux", "name": "Wok Way", "image_url": "https://s3-media3.fl.yelpcdn.com/bphoto/x2mqG-lHImZkC2tZjK7JFw/o.jpg", "is_closed": false, "url": "https://www.yelp.com/biz/wok-way-bordeaux?adjust_creative=GS_rn-_RHO9hSYA13t7mWQ&utm_campaign=yelp_api_v3&utm_medium=api_v3_business_search&utm_source=GS_rn-_RHO9hSYA13t7mWQ", "review_count": 14, "categories": [{"alias": "chinese", "title": "Chinese"}, {"alias": "wok", "title": "Wok"}], "rating": 4.5, "coordinates": {"latitude": 44.8344334911082, "longitude": -0.575461909174919}, "transactions": [], "price": "\u20ac\u20ac", "location": {"address1": "12 rue Paul Louis Lande", "address2": "", "address3": "", "city": "Bordeaux", "zip_code": "33000", "country": "FR", "state": "33", "display_address": ["12 rue Paul Louis Lande", "33000 Bordeaux", "France"]}, "phone": "+33556749462", "display_phone": "+33 5 56 74 94 62", "distance": 589.5072703624528}, {"id": "0ORP87e9-R4u3m4Z5e88MQ", "alias": "fufu-bordeaux", "name": "Fufu", "image_url": "https://s3-media2.fl.yelpcdn.com/bphoto/djqOKCN-NuanRHzlldZl4w/o.jpg", "is_closed": false, "url": "https://www.yelp.com/biz/fufu-bordeaux?adjust_creative=GS_rn-_RHO9hSYA13t7mWQ&utm_campaign=yelp_api_v3&utm_medium=api_v3_business_search&utm_source=GS_rn-_RHO9hSYA13t7mWQ", "review_count": 215, "categories": [{"alias": "ramen", "title": "Ramen"}, {"alias": "panasian", "title": "Pan Asian"}], "rating": 4.5, "coordinates": {"latitude": 44.841348271702, "longitude": -0.57230376996447}, "transactions": [], "price": "\u20ac\u20ac", "location": {"address1": "37 rue Saint-R\u00e9mi", "address2": "", "address3": "", "city": "Bordeaux", "zip_code": "33000", "country": "FR", "state": "33", "display_address": ["37 rue Saint-R\u00e9mi", "33000 Bordeaux", "France"]}, "phone": "+33556521029", "display_phone": "+33 5 56 52 10 29", "distance": 247.42211125965062}, {"id": "_r4ufSPFJDrA2tF0Mh4g-Q", "alias": "chez-hibou-bordeaux", "name": "Chez Hibou", "image_url": "https://s3-media2.fl.yelpcdn.com/bphoto/OxN8dhQIrR9UXLOiSdWquA/o.jpg", "is_closed": false, "url": "https://www.yelp.com/biz/chez-hibou-bordeaux?adjust_creative=GS_rn-_RHO9hSYA13t7mWQ&utm_campaign=yelp_api_v3&utm_medium=api_v3_business_search&utm_source=GS_rn-_RHO9hSYA13t7mWQ", "review_count": 1, "categories": [{"alias": "chinese", "title": "Chinese"}], "rating": 5.0, "coordinates": {"latitude": 44.830273, "longitude": -0.56963}, "transactions": [], "location": {"address1": "40 cours de la Marne", "address2": null, "address3": "", "city": "Bordeaux", "zip_code": "33000", "country": "FR", "state": "33", "display_address": ["40 cours de la Marne", "33000 Bordeaux", "France"]}, "phone": "+33533483706", "display_phone": "+33 5 33 48 37 06", "distance": 1110.9300371367021}, {"id": "9sj8k5kvgUj7SBjqLXZiQg", "alias": "au-bonheur-du-palais-bordeaux", "name": "Au Bonheur du Palais", "image_url": "https://s3-media2.fl.yelpcdn.com/bphoto/geHTvvvd8A1TOrJU1Y84VA/o.jpg", "is_closed": false, "url": "https://www.yelp.com/biz/au-bonheur-du-palais-bordeaux?adjust_creative=GS_rn-_RHO9hSYA13t7mWQ&utm_campaign=yelp_api_v3&utm_medium=api_v3_business_search&utm_source=GS_rn-_RHO9hSYA13t7mWQ", "review_count": 87, "categories": [{"alias": "chinese", "title": "Chinese"}], "rating": 3.5, "coordinates": {"latitude": 44.8327, "longitude": -0.57701}, "transactions": [], "price": "\u20ac\u20ac\u20ac\u20ac", "location": {"address1": "74 rue Paul Louis Lande", "address2": null, "address3": null, "city": "Bordeaux", "zip_code": "33000", "country": "FR", "state": "33", "display_address": ["74 rue Paul Louis Lande", "33000 Bordeaux", "France"]}, "phone": "+33556943863", "display_phone": "+33 5 56 94 38 63", "distance": 801.8335657030541}, {"id": "0hmHpRt56cPmT_h11XC4gA", "alias": "madame-pang-bordeaux", "name": "Madame Pang", "image_url": "https://s3-media1.fl.yelpcdn.com/bphoto/d_dqItjFlDXI8vFRWewleQ/o.jpg", "is_closed": false, "url": "https://www.yelp.com/biz/madame-pang-bordeaux?adjust_creative=GS_rn-_RHO9hSYA13t7mWQ&utm_campaign=yelp_api_v3&utm_medium=api_v3_business_search&utm_source=GS_rn-_RHO9hSYA13t7mWQ", "review_count": 1, "categories": [{"alias": "cocktailbars", "title": "Cocktail Bars"}, {"alias": "dimsum", "title": "Dim Sum"}, {"alias": "wine_bars", "title": "Wine Bars"}], "rating": 4.0, "coordinates": {"latitude": 44.83995, "longitude": -0.5715}, "transactions": [], "location": {"address1": "16 rue de la Devise", "address2": "", "address3": null, "city": "Bordeaux", "zip_code": "33000", "country": "FR", "state": "33", "display_address": ["16 rue de la Devise", "33000 Bordeaux", "France"]}, "phone": "+33564285836", "display_phone": "+33 5 64 28 58 36", "distance": 222.87307779799974}, {"id": "d3Xz9nKRLLPadlIZRrhMVQ", "alias": "le-pacifique-bordeaux", "name": "Le Pacifique", "image_url": "https://s3-media1.fl.yelpcdn.com/bphoto/WdDKTadU9dHuN8NY47D9ow/o.jpg", "is_closed": false, "url": "https://www.yelp.com/biz/le-pacifique-bordeaux?adjust_creative=GS_rn-_RHO9hSYA13t7mWQ&utm_campaign=yelp_api_v3&utm_medium=api_v3_business_search&utm_source=GS_rn-_RHO9hSYA13t7mWQ", "review_count": 16, "categories": [{"alias": "chinese", "title": "Chinese"}, {"alias": "vietnamese", "title": "Vietnamese"}, {"alias": "panasian", "title": "Pan Asian"}], "rating": 4.0, "coordinates": {"latitude": 44.8447113, "longitude": -0.57894}, "transactions": [], "price": "\u20ac\u20ac", "location": {"address1": "10 rue Huguerie", "address2": "", "address3": "", "city": "Bordeaux", "zip_code": "33000", "country": "FR", "state": "33", "display_address": ["10 rue Huguerie", "33000 Bordeaux", "France"]}, "phone": "+33556526114", "display_phone": "+33 5 56 52 61 14", "distance": 663.8274803060991}, {"id": "UTJC4C9YsYZjevUU28dpfA", "alias": "chefs-concert-bordeaux", "name": "Chef's Concert", "image_url": "https://s3-media2.fl.yelpcdn.com/bphoto/ddPBzH40KODKJVUHydn7nw/o.jpg", "is_closed": false, "url": "https://www.yelp.com/biz/chefs-concert-bordeaux?adjust_creative=GS_rn-_RHO9hSYA13t7mWQ&utm_campaign=yelp_api_v3&utm_medium=api_v3_business_search&utm_source=GS_rn-_RHO9hSYA13t7mWQ", "review_count": 6, "categories": [{"alias": "chinese", "title": "Chinese"}], "rating": 4.5, "coordinates": {"latitude": 44.83683, "longitude": -0.57994}, "transactions": [], "price": "\u20ac\u20ac", "location": {"address1": "21 rue des Fr\u00e8res Bonie", "address2": "", "address3": null, "city": "Bordeaux", "zip_code": "33000", "country": "FR", "state": "33", "display_address": ["21 rue des Fr\u00e8res Bonie", "33000 Bordeaux", "France"]}, "phone": "", "display_phone": "", "distance": 536.7050356301409}, {"id": "l4MPlZGNSpvppp-Y-oLYKQ", "alias": "perle-th\u00e9-bordeaux", "name": "Perle Th\u00e9", "image_url": "https://s3-media2.fl.yelpcdn.com/bphoto/zkvYfKOIKmfFfHhGILImWA/o.jpg", "is_closed": false, "url": "https://www.yelp.com/biz/perle-th%C3%A9-bordeaux?adjust_creative=GS_rn-_RHO9hSYA13t7mWQ&utm_campaign=yelp_api_v3&utm_medium=api_v3_business_search&utm_source=GS_rn-_RHO9hSYA13t7mWQ", "review_count": 4, "categories": [{"alias": "chinese", "title": "Chinese"}, {"alias": "bubbletea", "title": "Bubble Tea"}, {"alias": "taiwanese", "title": "Taiwanese"}], "rating": 4.5, "coordinates": {"latitude": 44.83410315, "longitude": -0.57573319}, "transactions": [], "price": "\u20ac\u20ac", "location": {"address1": "32 rue Paul Louis Lande", "address2": "", "address3": "", "city": "Bordeaux", "zip_code": "33000", "country": "FR", "state": "33", "display_address": ["32 rue Paul Louis Lande", "33000 Bordeaux", "France"]}, "phone": "+33547296367", "display_phone": "+33 5 47 29 63 67", "distance": 629.1500845926657}, {"id": "vCAX99lGsgpSYO71NOEenA", "alias": "le-jardin-p\u00e9kinois-bordeaux", "name": "Le Jardin P\u00e9kinois", "image_url": "https://s3-media2.fl.yelpcdn.com/bphoto/Gpc7xpHd8xcbXllXSjFiSw/o.jpg", "is_closed": false, "url": "https://www.yelp.com/biz/le-jardin-p%C3%A9kinois-bordeaux?adjust_creative=GS_rn-_RHO9hSYA13t7mWQ&utm_campaign=yelp_api_v3&utm_medium=api_v3_business_search&utm_source=GS_rn-_RHO9hSYA13t7mWQ", "review_count": 6, "categories": [{"alias": "pekinese", "title": "Pekinese"}], "rating": 4.5, "coordinates": {"latitude": 44.83697, "longitude": -0.57945}, "transactions": [], "price": "\u20ac\u20ac", "location": {"address1": "9 rue des Fr\u00e8res Bonie", "address2": "", "address3": "", "city": "Bordeaux", "zip_code": "33000", "country": "FR", "state": "33", "display_address": ["9 rue des Fr\u00e8res Bonie", "33000 Bordeaux", "France"]}, "phone": "+33524547698", "display_phone": "+33 5 24 54 76 98", "distance": 496.986761268826}, {"id": "urBidnJToO0T0-3JUuqquA", "alias": "asia-food-bordeaux", "name": "Asia Food", "image_url": "https://s3-media3.fl.yelpcdn.com/bphoto/YzPTq8p-HghvPEmtDPuUcQ/o.jpg", "is_closed": false, "url": "https://www.yelp.com/biz/asia-food-bordeaux?adjust_creative=GS_rn-_RHO9hSYA13t7mWQ&utm_campaign=yelp_api_v3&utm_medium=api_v3_business_search&utm_source=GS_rn-_RHO9hSYA13t7mWQ", "review_count": 3, "categories": [{"alias": "chinese", "title": "Chinese"}], "rating": 4.5, "coordinates": {"latitude": 44.8368186, "longitude": -0.571553}, "transactions": [], "location": {"address1": "6 Rue Saint-James", "address2": null, "address3": null, "city": "Bordeaux", "zip_code": "33000", "country": "FR", "state": "33", "display_address": ["6 Rue Saint-James", "33000 Bordeaux", "France"]}, "phone": "", "display_phone": "", "distance": 388.36039556075264}, {"id": "kX5rEa1MV75zhgo83fGcPw", "alias": "bao-burger-ramen-bordeaux", "name": "Bao Burger Ramen", "image_url": "https://s3-media2.fl.yelpcdn.com/bphoto/dLGgSaeiiYiBHgARJwuAnw/o.jpg", "is_closed": false, "url": "https://www.yelp.com/biz/bao-burger-ramen-bordeaux?adjust_creative=GS_rn-_RHO9hSYA13t7mWQ&utm_campaign=yelp_api_v3&utm_medium=api_v3_business_search&utm_source=GS_rn-_RHO9hSYA13t7mWQ", "review_count": 7, "categories": [{"alias": "dimsum", "title": "Dim Sum"}, {"alias": "ramen", "title": "Ramen"}], "rating": 4.5, "coordinates": {"latitude": 44.84102, "longitude": -0.57359}, "transactions": [], "location": {"address1": "21 rue des Piliers de Tutelle", "address2": "", "address3": null, "city": "Bordeaux", "zip_code": "33000", "country": "FR", "state": "33", "display_address": ["21 rue des Piliers de Tutelle", "33000 Bordeaux", "France"]}, "phone": "+33663564314", "display_phone": "+33 6 63 56 43 14", "distance": 156.3841968925125}, {"id": "OJMShKyQgMb7C-B16eDetA", "alias": "restaurant-le-lotus-bleu-bordeaux", "name": "Restaurant Le Lotus Bleu", "image_url": "https://s3-media3.fl.yelpcdn.com/bphoto/hwdIY5IadhGpP_fwP9j7iQ/o.jpg", "is_closed": false, "url": "https://www.yelp.com/biz/restaurant-le-lotus-bleu-bordeaux?adjust_creative=GS_rn-_RHO9hSYA13t7mWQ&utm_campaign=yelp_api_v3&utm_medium=api_v3_business_search&utm_source=GS_rn-_RHO9hSYA13t7mWQ", "review_count": 19, "categories": [{"alias": "chinese", "title": "Chinese"}], "rating": 4.5, "coordinates": {"latitude": 44.83654, "longitude": -0.5998}, "transactions": [], "price": "\u20ac\u20ac", "location": {"address1": "14 avenue d'Ar\u00e8s", "address2": null, "address3": null, "city": "Bordeaux", "zip_code": "33000", "country": "FR", "state": "33", "display_address": ["14 avenue d'Ar\u00e8s", "33000 Bordeaux", "France"]}, "phone": "+33556246436", "display_phone": "+33 5 56 24 64 36", "distance": 2036.9063873207103}, {"id": "UBk8n4o0KhyK1AmtTgTDJw", "alias": "restaurant-l-hirondelle-bordeaux", "name": "Restaurant l'Hirondelle", "image_url": "https://s3-media3.fl.yelpcdn.com/bphoto/ZFOtvff3hi23uNUCVOBfEg/o.jpg", "is_closed": false, "url": "https://www.yelp.com/biz/restaurant-l-hirondelle-bordeaux?adjust_creative=GS_rn-_RHO9hSYA13t7mWQ&utm_campaign=yelp_api_v3&utm_medium=api_v3_business_search&utm_source=GS_rn-_RHO9hSYA13t7mWQ", "review_count": 14, "categories": [{"alias": "chinese", "title": "Chinese"}], "rating": 4.0, "coordinates": {"latitude": 44.8377399, "longitude": -0.56719}, "transactions": [], "price": "\u20ac\u20ac", "location": {"address1": "43 Quai Richelieu", "address2": null, "address3": null, "city": "Bordeaux", "zip_code": "33000", "country": "FR", "state": "33", "display_address": ["43 Quai Richelieu", "33000 Bordeaux", "France"]}, "phone": "+33556443734", "display_phone": "+33 5 56 44 37 34", "distance": 601.2353982223681}, {"id": "0XxNr6ItxUHVjQDSP9UxPQ", "alias": "xieng-ma\u00ef-bordeaux", "name": "Xieng-Ma\u00ef", "image_url": "https://s3-media1.fl.yelpcdn.com/bphoto/FYREtpPDFjLnQUXhJFQMQg/o.jpg", "is_closed": false, "url": "https://www.yelp.com/biz/xieng-ma%C3%AF-bordeaux?adjust_creative=GS_rn-_RHO9hSYA13t7mWQ&utm_campaign=yelp_api_v3&utm_medium=api_v3_business_search&utm_source=GS_rn-_RHO9hSYA13t7mWQ", "review_count": 4, "categories": [{"alias": "thai", "title": "Thai"}, {"alias": "chinese", "title": "Chinese"}, {"alias": "panasian", "title": "Pan Asian"}], "rating": 4.5, "coordinates": {"latitude": 44.8367801046639, "longitude": -0.599142788364999}, "transactions": [], "price": "\u20ac\u20ac", "location": {"address1": "5 bd du Pr\u00e9sident Wilson", "address2": "", "address3": "", "city": "Bordeaux", "zip_code": "33000", "country": "FR", "state": "33", "display_address": ["5 bd du Pr\u00e9sident Wilson", "33000 Bordeaux", "France"]}, "phone": "+33556901297", "display_phone": "+33 5 56 90 12 97", "distance": 1979.0155246627276}, {"id": "5z-lhOf-MhiJ_gXsjN0jeQ", "alias": "la-chine-bordeaux", "name": "La Chine", "image_url": "https://s3-media2.fl.yelpcdn.com/bphoto/96j1gaUEqNfKZCjffhtX-g/o.jpg", "is_closed": false, "url": "https://www.yelp.com/biz/la-chine-bordeaux?adjust_creative=GS_rn-_RHO9hSYA13t7mWQ&utm_campaign=yelp_api_v3&utm_medium=api_v3_business_search&utm_source=GS_rn-_RHO9hSYA13t7mWQ", "review_count": 37, "categories": [{"alias": "chinese", "title": "Chinese"}], "rating": 3.0, "coordinates": {"latitude": 44.84119, "longitude": -0.57324}, "transactions": [], "price": "\u20ac\u20ac", "location": {"address1": "54 Rue Saint R\u00e9mi", "address2": null, "address3": null, "city": "Bordeaux", "zip_code": "33000", "country": "FR", "state": "33", "display_address": ["54 Rue Saint R\u00e9mi", "33000 Bordeaux", "France"]}, "phone": "+33556791324", "display_phone": "+33 5 56 79 13 24", "distance": 179.2284634769308}, {"id": "X3GRbpO64T3DTJvdISdKsQ", "alias": "new-hoang-son-bordeaux-2", "name": "NEW Hoang-Son", "image_url": "https://s3-media4.fl.yelpcdn.com/bphoto/7xOKOg4L5x2NepjixGK4ew/o.jpg", "is_closed": false, "url": "https://www.yelp.com/biz/new-hoang-son-bordeaux-2?adjust_creative=GS_rn-_RHO9hSYA13t7mWQ&utm_campaign=yelp_api_v3&utm_medium=api_v3_business_search&utm_source=GS_rn-_RHO9hSYA13t7mWQ", "review_count": 5, "categories": [{"alias": "chinese", "title": "Chinese"}, {"alias": "vietnamese", "title": "Vietnamese"}], "rating": 4.0, "coordinates": {"latitude": 44.836988, "longitude": -0.579281}, "transactions": [], "price": "\u20ac", "location": {"address1": "9 Rue Fr\u00e8res Bonie", "address2": null, "address3": null, "city": "Bordeaux", "zip_code": "33000", "country": "FR", "state": "33", "display_address": ["9 Rue Fr\u00e8res Bonie", "33000 Bordeaux", "France"]}, "phone": "+33623256259", "display_phone": "+33 6 23 25 62 59", "distance": 488.81544303224223}, {"id": "RmCDehVU07rLXr86kV0Wsg", "alias": "i-bo-bun-bordeaux-2", "name": "I Bo-Bun", "image_url": "https://s3-media3.fl.yelpcdn.com/bphoto/YpaVdLu7H5myOIGnDQkRsQ/o.jpg", "is_closed": false, "url": "https://www.yelp.com/biz/i-bo-bun-bordeaux-2?adjust_creative=GS_rn-_RHO9hSYA13t7mWQ&utm_campaign=yelp_api_v3&utm_medium=api_v3_business_search&utm_source=GS_rn-_RHO9hSYA13t7mWQ", "review_count": 3, "categories": [{"alias": "vietnamese", "title": "Vietnamese"}, {"alias": "chinese", "title": "Chinese"}], "rating": 4.0, "coordinates": {"latitude": 44.8324196, "longitude": -0.5725384}, "transactions": [], "price": "\u20ac\u20ac", "location": {"address1": "37 rue des Augustins", "address2": "", "address3": "", "city": "Bordeaux", "zip_code": "33000", "country": "FR", "state": "33", "display_address": ["37 rue des Augustins", "33000 Bordeaux", "France"]}, "phone": "+33556219234", "display_phone": "+33 5 56 21 92 34", "distance": 820.16718586752}, {"id": "44mngROrBvu756mMD1ZdtA", "alias": "hong-thai-bordeaux", "name": "Hong Thai", "image_url": "https://s3-media4.fl.yelpcdn.com/bphoto/Jzs3-ZV4yUeF3iAN0uf2Jw/o.jpg", "is_closed": false, "url": "https://www.yelp.com/biz/hong-thai-bordeaux?adjust_creative=GS_rn-_RHO9hSYA13t7mWQ&utm_campaign=yelp_api_v3&utm_medium=api_v3_business_search&utm_source=GS_rn-_RHO9hSYA13t7mWQ", "review_count": 1, "categories": [{"alias": "cantonese", "title": "Cantonese"}], "rating": 4.0, "coordinates": {"latitude": 44.860504, "longitude": -0.581197}, "transactions": [], "location": {"address1": "Place de l'europe", "address2": "", "address3": "", "city": "Bordeaux", "zip_code": "33300", "country": "FR", "state": "33", "display_address": ["Place de l'europe", "33300 Bordeaux", "France"]}, "phone": "", "display_phone": "", "distance": 2231.8809416376644}], "total": 42, "region": {"center": {"longitude": -0.5743789672851562, "latitude": 44.839679151246266}}}